[
	{
		"id":"1-1",
		"name":"Брестская крепость",
		"description":"Бре́стская кре́пость — крепость в черте города Бреста в Белоруссии, у впадения реки Мухавец в Западный Буг, а также Тереспольской гмины Польши. Крепость-герой.",
		"pic":"images/brest_castle.jpg",
		"lat":"52.083211",
		"lng":"23.659033",
		"comments":"4",
		"mark":"3.6"
	},
	{
		"id":"1-2",
		"name":"Ледовый дворец",
		"description":"«Бре́стский ледо́вый двор́ец спо́рта» — спорткомплекс в городе Брест, Белоруссия. Введён в эксплуатацию 30 июня 2000 года.",
		"pic":"images/ledovyi_dvorec_Brest.jpg",
		"lat":"52.091366",
		"lng":"23.738609",
		"comments":"0",
		"mark":"4.7"
	},
	{
		"id":"1-3",
		"name":"Гостиница Юность",
		"description":"Гостиница «Юность», являющаяся одним из предприятий ДОСААФ, расположена в Восточном микрорайоне. В то же время близость к центру города (15-20 минут езды) и хорошее транспортное сообщение позволяет решать любые вопросы и интересно отдыхать, проживая в гостинице «Юность».",
		"pic":"images/junost.jpg",
		"lat":"52.107131",
		"lng":"23.751799",
		"comments":"0",
		"mark":"3.3"
	},
	{
		"id":"1-4",
		"name":"Hermitage Отель",
		"description":"Featuring a stylish restaurant, the elegant 4-star Hermitage Hotel is situated in the heart of Brest. All rooms offer air conditioning and free Wi-Fi.A seating area, work desk and flat-screen satellite TV are provided in all the rooms. They are decorated in rich colours and luxurious fabrics.",
		"pic":"images/hermitage.jpg",
		"lat":"52.094094",
		"lng":"23.681316",
		"comments":"0",
		"mark":"4.8"
	},
	{
		"id":"1-5",
		"name":"Бар «Не горюй»",
		"description":"Заведение для быдла.",
		"pic":"images/ne_goruy.jpg",
		"lat":"52.110509",
		"lng":"23.783916",
		"comments":"0",
		"mark":"2.3"
	},
	{
		"id":"1-6",
		"name":"Брестский государственный университет имени А.С.Пушкина",
		"description":"Университет располагается в трех учебных корпусах, имеет 5 корпусов общежитий студенческого городка, спортивный комплекс с бассейном, библиотеку, биологический музей, этнографический музей, музей истории физической культуры Брестской области, зимний сад и сад непрерывного цветения, учебную агробиологическую базу. В целях реализации основных направлений деятельности университета созданы учебно-методический отдел, научно-исследовательский сектор, отдел воспитательной работы с молодежью, центр информационных технологий, управление бухгалтерского учета и финансов, отдел международных связей, отдел правовой и коммерческой работы, редакционно-издательский отдел, отдел кадров, отдел документационного обеспечения, эксплуатационно-технический отдел.",
		"pic":"images/korpus.jpg",
		"lat":"52.098324",
		"lng":"23.694267",
		"comments":"0",
		"mark":"3.4"
	},
	{
		"id":"1-7",
		"name":"ТЦ Gallery Grand",
		"description":"Gallery Grand - это многофункциональный торгово-развлекательный комплекс для покупок и отдыха. Три этажа известных зарубежных и белорусских брэндов. Удобный лифт позволит молодой маме с коляской прямо с парковки подняться на первый и второй этаж. Специально оборудована комната для пеленания и кормления малыша.",
		"pic":"images/g8.jpg",
		"lat":"52.096439",
		"lng":"23.691660",
		"comments":"0",
		"mark":"4.0"
	},
	{
		"id":"1-8",
		"name":"Кальян-бар «Альтаир»",
		"description":"«Альтаир» — это настоящий развлекательный рай, где каждый найдет себе место в разнообразном мире отдыха. Пропустить пару стаканчиков после работы или протанцевать до утра, загнать все шары в лузы или расслабиться, раскуривая кальян, — а чем сегодня займетесь вы?",
		"pic":"images/altair.jpg",
		"lat":"52.090433",
		"lng":"23.712007",
		"comments":"0",
		"mark":"4.3"
	},
	{
		"id":"1-9",
		"name":"Кинотеатр Беларусь",
		"description":"KINOBREST.BY - ПОГРУЗИСЬ В МИР КИНО ВМЕСТЕ С НАМИ .",
		"pic":"images/bel1.jpg",
		"lat":"52.090824",
		"lng":"23.694769",
		"comments":"0",
		"mark":"3.6"
	}
]